gps_seconds[s],file_name,latitude[deg],longitude[deg],altitude_ellipsoidal[m],roll[deg],pitch[deg],heading[deg],projectedX[m],projectedY[m],projectedZ[m]
1314965269.19628,A14EBWBJ47AWoolpittoHaugleyBridge_sideview_000008_000544_Lane1.jpg,52.2173425,0.9456949,95.169,1.48835,-40.10382,67.73309,601321.443,261768.182,49.937
1314965269.33135,A14EBWBJ47AWoolpittoHaugleyBridge_sideview_000008_000545_Lane1.jpg,52.2173342,0.9456531,95.23,1.33814,-40.1099,67.68278,601318.624,261767.144,49.998
1314965269.46640,A14EBWBJ47AWoolpittoHaugleyBridge_sideview_000008_000546_Lane1.jpg,52.2173258,0.9456112,95.291,1.23421,-40.13115,67.5949,601315.805,261766.096,50.059
1314965269.60140,A14EBWBJ47AWoolpittoHaugleyBridge_sideview_000008_000547_Lane1.jpg,52.2173173,0.9455694,95.354,1.13584,-40.18791,67.52219,601312.984,261765.039,50.122
1314965269.73643,A14EBWBJ47AWoolpittoHaugleyBridge_sideview_000008_000548_Lane1.jpg,52.2173088,0.9455274,95.42,0.95748,-40.11147,67.50869,601310.16,261763.973,50.188
1314965269.87145,A14EBWBJ47AWoolpittoHaugleyBridge_sideview_000008_000549_Lane1.jpg,52.2173002,0.9454855,95.483,0.80635,-40.02929,67.47612,601307.334,261762.901,50.25
1314965270.00672,A14EBWBJ47AWoolpittoHaugleyBridge_sideview_000008_000550_Lane1.jpg,52.2172915,0.9454435,95.54,0.67862,-40.04089,67.43591,601304.502,261761.819,50.308
1314965270.14153,A14EBWBJ47AWoolpittoHaugleyBridge_sideview_000008_000551_Lane1.jpg,52.2172828,0.9454015,95.6,0.70663,-40.11348,67.30031,601301.679,261760.731,50.368
1314965270.27656,A14EBWBJ47AWoolpittoHaugleyBridge_sideview_000008_000552_Lane1.jpg,52.2172739,0.9453595,95.663,0.77701,-40.24854,67.17207,601298.849,261759.632,50.431
1314965270.41160,A14EBWBJ47AWoolpittoHaugleyBridge_sideview_000008_000553_Lane1.jpg,52.2172651,0.9453175,95.732,0.47671,-40.20877,67.28172,601296.016,261758.532,50.5
1314965270.54662,A14EBWBJ47AWoolpittoHaugleyBridge_sideview_000008_000554_Lane1.jpg,52.2172562,0.9452753,95.803,0.03568,-40.3556,67.3958,601293.173,261757.431,50.57
1314965270.68172,A14EBWBJ47AWoolpittoHaugleyBridge_sideview_000008_000555_Lane1.jpg,52.2172473,0.9452329,95.871,-0.23435,-39.33573,67.47676,601290.32,261756.315,50.638
1314965270.81667,A14EBWBJ47AWoolpittoHaugleyBridge_sideview_000008_000556_Lane1.jpg,52.2172382,0.9451909,95.893,-0.01684,-40.30076,67.26783,601287.49,261755.194,50.66
1314965270.95194,A14EBWBJ47AWoolpittoHaugleyBridge_sideview_000008_000557_Lane1.jpg,52.2172291,0.9451485,95.964,-0.15591,-40.19941,67.22434,601284.639,261754.064,50.732
1314965271.08677,A14EBWBJ47AWoolpittoHaugleyBridge_sideview_000008_000558_Lane1.jpg,52.21722,0.9451063,96.042,-0.4327,-40.08171,67.26855,601281.796,261752.933,50.81
1314965271.22178,A14EBWBJ47AWoolpittoHaugleyBridge_sideview_000008_000559_Lane1.jpg,52.2172108,0.945064,96.107,-0.66351,-39.74478,67.27349,601278.952,261751.795,50.875
1314965271.35691,A14EBWBJ47AWoolpittoHaugleyBridge_sideview_000008_000560_Lane1.jpg,52.2172016,0.9450219,96.153,-0.75713,-39.87697,67.21599,601276.115,261750.65,50.92
1314965271.49183,A14EBWBJ47AWoolpittoHaugleyBridge_sideview_000008_000561_Lane1.jpg,52.2171923,0.9449798,96.202,-0.94547,-40.18126,67.23594,601273.284,261749.502,50.97
1314965271.62689,A14EBWBJ47AWoolpittoHaugleyBridge_sideview_000008_000562_Lane1.jpg,52.217183,0.9449377,96.271,-1.36605,-39.81029,67.33425,601270.446,261748.352,51.039
1314965271.76188,A14EBWBJ47AWoolpittoHaugleyBridge_sideview_000008_000563_Lane1.jpg,52.2171737,0.9448958,96.324,-1.30145,-40.8635,67.15246,601267.63,261747.196,51.091
1314965271.89691,A14EBWBJ47AWoolpittoHaugleyBridge_sideview_000008_000564_Lane1.jpg,52.2171641,0.9448537,96.433,-1.08988,-39.60839,67.02593,601264.798,261746.015,51.2
1314965272.03215,A14EBWBJ47AWoolpittoHaugleyBridge_sideview_000008_000565_Lane1.jpg,52.2171546,0.9448116,96.486,-1.18252,-40.06975,67.01565,601261.967,261744.841,51.254
1314965272.16699,A14EBWBJ47AWoolpittoHaugleyBridge_sideview_000008_000566_Lane1.jpg,52.217145,0.9447696,96.535,-1.16338,-39.18425,66.94535,601259.138,261743.661,51.302
1314965272.30206,A14EBWBJ47AWoolpittoHaugleyBridge_sideview_000008_000567_Lane1.jpg,52.2171355,0.9447277,96.545,-1.07396,-40.12263,66.87527,601256.322,261742.483,51.312
1314965272.43706,A14EBWBJ47AWoolpittoHaugleyBridge_sideview_000008_000568_Lane1.jpg,52.2171259,0.9446857,96.605,-1.17497,-40.25049,66.85272,601253.499,261741.304,51.372
1314965272.57211,A14EBWBJ47AWoolpittoHaugleyBridge_sideview_000008_000569_Lane1.jpg,52.2171163,0.9446437,96.688,-1.32172,-39.70143,66.87495,601250.672,261740.119,51.455
1314965272.70714,A14EBWBJ47AWoolpittoHaugleyBridge_sideview_000008_000570_Lane1.jpg,52.2171067,0.9446018,96.741,-1.45198,-39.77891,66.92757,601247.852,261738.934,51.508
1314965272.84221,A14EBWBJ47AWoolpittoHaugleyBridge_sideview_000008_000571_Lane1.jpg,52.2170971,0.9445599,96.784,-1.51447,-40.181,66.95406,601245.036,261737.747,51.551
1314965272.97717,A14EBWBJ47AWoolpittoHaugleyBridge_sideview_000008_000572_Lane1.jpg,52.2170874,0.944518,96.847,-1.6478,-39.99014,66.99596,601242.215,261736.558,51.614
1314965273.11247,A14EBWBJ47AWoolpittoHaugleyBridge_sideview_000008_000573_Lane1.jpg,52.2170777,0.944476,96.909,-1.69482,-39.91915,67.00704,601239.389,261735.364,51.675
1314965273.24724,A14EBWBJ47AWoolpittoHaugleyBridge_sideview_000008_000574_Lane1.jpg,52.2170681,0.9444342,96.965,-1.63377,-39.953,66.98278,601236.578,261734.171,51.731
1314965273.38234,A14EBWBJ47AWoolpittoHaugleyBridge_sideview_000008_000575_Lane1.jpg,52.2170584,0.9443922,97.023,-1.65346,-39.70793,67.03592,601233.757,261732.976,51.79
1314965273.51729,A14EBWBJ47AWoolpittoHaugleyBridge_sideview_000008_000576_Lane1.jpg,52.2170487,0.9443503,97.073,-1.68618,-40.01461,67.1321,601230.941,261731.786,51.839
1314965273.65233,A14EBWBJ47AWoolpittoHaugleyBridge_sideview_000008_000577_Lane1.jpg,52.2170391,0.9443084,97.134,-1.69055,-39.9794,67.2006,601228.119,261730.596,51.9
1314965273.78739,A14EBWBJ47AWoolpittoHaugleyBridge_sideview_000008_000578_Lane1.jpg,52.2170294,0.9442664,97.193,-1.56941,-39.79481,67.23274,601225.296,261729.406,51.96
1314965273.92238,A14EBWBJ47AWoolpittoHaugleyBridge_sideview_000008_000579_Lane1.jpg,52.2170198,0.9442245,97.241,-1.60843,-39.81987,67.37046,601222.475,261728.225,52.007
1314965274.05754,A14EBWBJ47AWoolpittoHaugleyBridge_sideview_000008_000580_Lane1.jpg,52.2170103,0.9441824,97.291,-1.68431,-39.8964,67.51829,601219.647,261727.051,52.057
1314965274.19259,A14EBWBJ47AWoolpittoHaugleyBridge_sideview_000008_000581_Lane1.jpg,52.2170009,0.9441404,97.349,-1.7418,-39.72221,67.65416,601216.817,261725.882,52.115
1314965274.32748,A14EBWBJ47AWoolpittoHaugleyBridge_sideview_000008_000582_Lane1.jpg,52.2169914,0.9440984,97.398,-1.78135,-39.70139,67.78996,601213.99,261724.718,52.164
1314965274.46254,A14EBWBJ47AWoolpittoHaugleyBridge_sideview_000008_000583_Lane1.jpg,52.2169821,0.9440563,97.442,-1.78864,-39.73901,67.91651,601211.159,261723.559,52.208
1314965274.59755,A14EBWBJ47AWoolpittoHaugleyBridge_sideview_000008_000584_Lane1.jpg,52.2169728,0.9440142,97.485,-2.0984,-39.95292,68.24867,601208.325,261722.412,52.251
1314965274.73260,A14EBWBJ47AWoolpittoHaugleyBridge_sideview_000008_000585_Lane1.jpg,52.2169636,0.9439721,97.541,-2.3452,-39.88513,68.53191,601205.492,261721.275,52.307
1314965274.86763,A14EBWBJ47AWoolpittoHaugleyBridge_sideview_000008_000586_Lane1.jpg,52.2169544,0.9439299,97.624,-1.94253,-39.3519,68.44814,601202.654,261720.13,52.39
1314965275.00282,A14EBWBJ47AWoolpittoHaugleyBridge_sideview_000008_000587_Lane1.jpg,52.2169452,0.9438878,97.669,-1.58546,-39.52046,68.41628,601199.819,261718.99,52.435
1314965275.13770,A14EBWBJ47AWoolpittoHaugleyBridge_sideview_000008_000588_Lane1.jpg,52.2169362,0.943846,97.695,-1.60537,-39.65118,68.68517,601197.001,261717.871,52.461
1314965275.27273,A14EBWBJ47AWoolpittoHaugleyBridge_sideview_000008_000589_Lane1.jpg,52.2169273,0.943804,97.744,-1.62635,-39.74556,68.80494,601194.175,261716.768,52.51
1314965275.40783,A14EBWBJ47AWoolpittoHaugleyBridge_sideview_000008_000590_Lane1.jpg,52.2169185,0.943762,97.807,-1.6838,-39.61492,68.98839,601191.347,261715.673,52.572
1314965275.54280,A14EBWBJ47AWoolpittoHaugleyBridge_sideview_000008_000591_Lane1.jpg,52.2169098,0.9437202,97.856,-1.67613,-39.51683,69.15772,601188.529,261714.589,52.622
1314965275.67781,A14EBWBJ47AWoolpittoHaugleyBridge_sideview_000008_000592_Lane1.jpg,52.2169012,0.9436784,97.891,-1.67701,-39.8402,69.34578,601185.717,261713.517,52.657
1314965275.81290,A14EBWBJ47AWoolpittoHaugleyBridge_sideview_000008_000593_Lane1.jpg,52.2168927,0.9436366,97.941,-1.71677,-39.80654,69.49896,601182.899,261712.453,52.707
1314965275.94787,A14EBWBJ47AWoolpittoHaugleyBridge_sideview_000008_000594_Lane1.jpg,52.2168842,0.9435948,97.997,-1.72528,-39.73074,69.6401,601180.081,261711.398,52.762
1314965276.08295,A14EBWBJ47AWoolpittoHaugleyBridge_sideview_000008_000595_Lane1.jpg,52.2168758,0.9435529,98.046,-1.72661,-39.84474,69.78852,601177.261,261710.349,52.811
1314965276.21793,A14EBWBJ47AWoolpittoHaugleyBridge_sideview_000008_000596_Lane1.jpg,52.2168675,0.9435111,98.099,-1.76018,-39.6132,69.90583,601174.441,261709.309,52.864
1314965276.35294,A14EBWBJ47AWoolpittoHaugleyBridge_sideview_000008_000597_Lane1.jpg,52.2168593,0.9434693,98.143,-1.77066,-39.69006,70.00242,601171.625,261708.276,52.908
1314965276.48807,A14EBWBJ47AWoolpittoHaugleyBridge_sideview_000008_000598_Lane1.jpg,52.2168511,0.9434275,98.188,-1.79731,-39.69857,70.0948,601168.809,261707.249,52.954
1314965276.62809,A14EBWBJ47AWoolpittoHaugleyBridge_sideview_000008_000599_Lane1.jpg,52.2168426,0.9433843,98.239,-1.83847,-39.73692,70.22784,601165.892,261706.191,53.004
1314965276.76808,A14EBWBJ47AWoolpittoHaugleyBridge_sideview_000008_000600_Lane1.jpg,52.2168343,0.9433411,98.293,-1.83737,-39.75399,70.31167,601162.979,261705.139,53.058
1314965276.90810,A14EBWBJ47AWoolpittoHaugleyBridge_sideview_000008_000601_Lane1.jpg,52.2168259,0.9432979,98.348,-1.77514,-39.7705,70.37655,601160.068,261704.092,53.114
1314965277.04817,A14EBWBJ47AWoolpittoHaugleyBridge_sideview_000008_000602_Lane1.jpg,52.2168176,0.9432548,98.403,-1.82972,-39.77847,70.50229,601157.158,261703.052,53.169
1314965277.18824,A14EBWBJ47AWoolpittoHaugleyBridge_sideview_000008_000603_Lane1.jpg,52.2168094,0.9432116,98.454,-1.70379,-39.82964,70.50638,601154.251,261702.016,53.219
1314965277.32822,A14EBWBJ47AWoolpittoHaugleyBridge_sideview_000008_000604_Lane1.jpg,52.2168012,0.9431686,98.506,-1.74831,-39.61551,70.62063,601151.345,261700.987,53.271
1314965277.46822,A14EBWBJ47AWoolpittoHaugleyBridge_sideview_000008_000605_Lane1.jpg,52.2167931,0.9431255,98.551,-1.81366,-39.6361,70.75074,601148.443,261699.966,53.316
1314965277.60827,A14EBWBJ47AWoolpittoHaugleyBridge_sideview_000008_000606_Lane1.jpg,52.216785,0.9430825,98.601,-1.81589,-39.57135,70.80911,601145.542,261698.95,53.367
1314965277.74829,A14EBWBJ47AWoolpittoHaugleyBridge_sideview_000008_000607_Lane1.jpg,52.216777,0.9430395,98.653,-1.82305,-39.56957,70.85666,601142.641,261697.938,53.418
1314965277.88843,A14EBWBJ47AWoolpittoHaugleyBridge_sideview_000008_000608_Lane1.jpg,52.216769,0.9429966,98.696,-1.69125,-39.63881,70.79863,601139.743,261696.926,53.461
1314965278.02853,A14EBWBJ47AWoolpittoHaugleyBridge_sideview_000008_000609_Lane1.jpg,52.216761,0.9429537,98.738,-1.48769,-39.70292,70.73115,601136.85,261695.915,53.503
1314965278.16840,A14EBWBJ47AWoolpittoHaugleyBridge_sideview_000008_000610_Lane1.jpg,52.216753,0.9429109,98.788,-1.42596,-39.78001,70.72865,601133.965,261694.911,53.553
1314965278.30842,A14EBWBJ47AWoolpittoHaugleyBridge_sideview_000008_000611_Lane1.jpg,52.2167451,0.9428681,98.843,-1.39722,-39.93744,70.73278,601131.077,261693.912,53.608
1314965278.44843,A14EBWBJ47AWoolpittoHaugleyBridge_sideview_000008_000612_Lane1.jpg,52.2167372,0.9428253,98.901,-1.66902,-39.6379,70.97692,601128.19,261692.918,53.665
1314965278.58849,A14EBWBJ47AWoolpittoHaugleyBridge_sideview_000008_000613_Lane1.jpg,52.2167294,0.9427826,98.946,-1.63849,-39.6887,70.96358,601125.307,261691.926,53.71
1314965278.72852,A14EBWBJ47AWoolpittoHaugleyBridge_sideview_000008_000614_Lane1.jpg,52.2167214,0.9427398,99.001,-1.19316,-38.93769,70.74644,601122.42,261690.924,53.765
1314965278.86855,A14EBWBJ47AWoolpittoHaugleyBridge_sideview_000008_000615_Lane1.jpg,52.2167136,0.9426973,99.009,-0.9993,-40.04006,70.73358,601119.554,261689.932,53.774
1314965279.00880,A14EBWBJ47AWoolpittoHaugleyBridge_sideview_000008_000616_Lane1.jpg,52.2167058,0.9426547,99.055,-1.24713,-40.31904,70.95174,601116.678,261688.955,53.82
1314965279.14864,A14EBWBJ47AWoolpittoHaugleyBridge_sideview_000008_000617_Lane1.jpg,52.2166982,0.942612,99.139,-1.71453,-39.78538,71.28847,601113.799,261687.989,53.904
1314965279.28876,A14EBWBJ47AWoolpittoHaugleyBridge_sideview_000008_000618_Lane1.jpg,52.2166906,0.9425694,99.203,-1.87393,-39.63196,71.54325,601110.922,261687.02,53.968
1314965279.42893,A14EBWBJ47AWoolpittoHaugleyBridge_sideview_000008_000619_Lane1.jpg,52.2166829,0.9425268,99.247,-1.69148,-39.70647,71.59457,601108.049,261686.051,54.011
1314965279.56871,A14EBWBJ47AWoolpittoHaugleyBridge_sideview_000008_000620_Lane1.jpg,52.2166754,0.9424844,99.288,-1.57441,-39.93553,71.71118,601105.183,261685.093,54.052
1314965279.70876,A14EBWBJ47AWoolpittoHaugleyBridge_sideview_000008_000621_Lane1.jpg,52.2166679,0.9424418,99.342,-1.70809,-39.75547,71.89811,601102.307,261684.147,54.107
1314965279.84881,A14EBWBJ47AWoolpittoHaugleyBridge_sideview_000008_000622_Lane1.jpg,52.2166606,0.9423992,99.392,-1.96187,-39.95222,72.1584,601099.434,261683.212,54.156
1314965279.98883,A14EBWBJ47AWoolpittoHaugleyBridge_sideview_000008_000623_Lane1.jpg,52.2166532,0.9423567,99.447,-1.94538,-39.85926,72.25907,601096.562,261682.28,54.212
1314965280.12895,A14EBWBJ47AWoolpittoHaugleyBridge_sideview_000008_000624_Lane1.jpg,52.216646,0.9423141,99.503,-1.90545,-39.79757,72.36845,601093.689,261681.351,54.267
1314965280.26886,A14EBWBJ47AWoolpittoHaugleyBridge_sideview_000008_000625_Lane1.jpg,52.2166387,0.9422716,99.558,-1.88964,-39.65614,72.4749,601090.818,261680.43,54.322
1314965280.40896,A14EBWBJ47AWoolpittoHaugleyBridge_sideview_000008_000626_Lane1.jpg,52.2166315,0.9422291,99.601,-1.79171,-39.75564,72.54509,601087.945,261679.513,54.365
1314965280.54893,A14EBWBJ47AWoolpittoHaugleyBridge_sideview_000008_000627_Lane1.jpg,52.2166244,0.9421865,99.646,-1.8729,-39.66733,72.70357,601085.072,261678.606,54.41
1314965280.68899,A14EBWBJ47AWoolpittoHaugleyBridge_sideview_000008_000628_Lane1.jpg,52.2166174,0.942144,99.688,-1.87995,-39.77791,72.79734,601082.199,261677.705,54.452
1314965280.82903,A14EBWBJ47AWoolpittoHaugleyBridge_sideview_000008_000629_Lane1.jpg,52.2166104,0.9421014,99.739,-1.84333,-39.61943,72.87541,601079.324,261676.808,54.503
1314965280.96906,A14EBWBJ47AWoolpittoHaugleyBridge_sideview_000008_000630_Lane1.jpg,52.2166034,0.9420589,99.788,-1.83706,-39.81672,72.96363,601076.45,261675.917,54.552
1314965281.10911,A14EBWBJ47AWoolpittoHaugleyBridge_sideview_000008_000631_Lane1.jpg,52.2165965,0.9420163,99.841,-1.82813,-39.85186,73.04364,601073.572,261675.03,54.605
1314965281.24920,A14EBWBJ47AWoolpittoHaugleyBridge_sideview_000008_000632_Lane1.jpg,52.2165897,0.9419737,99.892,-1.82905,-39.86311,73.13386,601070.692,261674.147,54.656
1314965281.38920,A14EBWBJ47AWoolpittoHaugleyBridge_sideview_000008_000633_Lane1.jpg,52.2165828,0.9419311,99.941,-1.85749,-39.74353,73.25794,601067.812,261673.271,54.705
1314965281.52916,A14EBWBJ47AWoolpittoHaugleyBridge_sideview_000008_000634_Lane1.jpg,52.2165761,0.9418885,99.987,-1.83795,-39.71509,73.32522,601064.933,261672.399,54.751
1314965281.66921,A14EBWBJ47AWoolpittoHaugleyBridge_sideview_000008_000635_Lane1.jpg,52.2165693,0.9418458,100.036,-1.87129,-39.71804,73.44492,601062.051,261671.532,54.8
1314965281.80922,A14EBWBJ47AWoolpittoHaugleyBridge_sideview_000008_000636_Lane1.jpg,52.2165627,0.9418032,100.086,-1.9684,-39.77194,73.5933,601059.171,261670.673,54.85
1314965281.94926,A14EBWBJ47AWoolpittoHaugleyBridge_sideview_000008_000637_Lane1.jpg,52.216556,0.9417606,100.136,-1.99961,-39.94689,73.69043,601056.292,261669.818,54.9
1314965282.09439,A14EBWBJ47AWoolpittoHaugleyBridge_sideview_000008_000638_Lane1.jpg,52.2165492,0.9417164,100.194,-1.96379,-39.71332,73.77444,601053.305,261668.933,54.958
1314965282.23934,A14EBWBJ47AWoolpittoHaugleyBridge_sideview_000008_000639_Lane1.jpg,52.2165424,0.9416724,100.24,-1.98905,-39.71207,73.88994,601050.326,261668.057,55.003
1314965282.38442,A14EBWBJ47AWoolpittoHaugleyBridge_sideview_000008_000640_Lane1.jpg,52.2165357,0.9416283,100.284,-2.00702,-39.90698,73.99534,601047.349,261667.187,55.048
1314965282.52939,A14EBWBJ47AWoolpittoHaugleyBridge_sideview_000008_000641_Lane1.jpg,52.216529,0.9415843,100.345,-2.03082,-39.79007,74.07539,601044.37,261666.322,55.109
1314965282.67442,A14EBWBJ47AWoolpittoHaugleyBridge_sideview_000008_000642_Lane1.jpg,52.2165224,0.9415403,100.402,-1.98524,-39.80239,74.12897,601041.393,261665.462,55.166
1314965282.81945,A14EBWBJ47AWoolpittoHaugleyBridge_sideview_000008_000643_Lane1.jpg,52.2165158,0.9414963,100.455,-1.96783,-39.81642,74.24394,601038.418,261664.606,55.218
1314965282.96453,A14EBWBJ47AWoolpittoHaugleyBridge_sideview_000008_000644_Lane1.jpg,52.2165092,0.9414522,100.507,-2.03079,-39.6202,74.35111,601035.44,261663.756,55.271
1314965283.10957,A14EBWBJ47AWoolpittoHaugleyBridge_sideview_000008_000645_Lane1.jpg,52.2165027,0.9414082,100.552,-1.89314,-39.74154,74.38729,601032.465,261662.91,55.315
1314965283.25459,A14EBWBJ47AWoolpittoHaugleyBridge_sideview_000008_000646_Lane1.jpg,52.2164963,0.9413643,100.595,-1.87452,-40.01423,74.46189,601029.496,261662.072,55.358
1314965283.39965,A14EBWBJ47AWoolpittoHaugleyBridge_sideview_000008_000647_Lane1.jpg,52.2164899,0.9413204,100.654,-1.85085,-39.83167,74.55829,601026.523,261661.239,55.418
1314965283.54465,A14EBWBJ47AWoolpittoHaugleyBridge_sideview_000008_000648_Lane1.jpg,52.2164835,0.9412764,100.714,-1.91607,-39.51508,74.68496,601023.548,261660.413,55.477
1314965283.68972,A14EBWBJ47AWoolpittoHaugleyBridge_sideview_000008_000649_Lane1.jpg,52.2164773,0.9412325,100.754,-1.94564,-39.67728,74.80877,601020.578,261659.593,55.517
1314965283.83468,A14EBWBJ47AWoolpittoHaugleyBridge_sideview_000008_000650_Lane1.jpg,52.216471,0.9411887,100.798,-1.94668,-39.92072,74.91971,601017.613,261658.78,55.561
1314965283.97975,A14EBWBJ47AWoolpittoHaugleyBridge_sideview_000008_000651_Lane1.jpg,52.2164648,0.9411448,100.858,-1.93188,-39.8418,75.01908,601014.641,261657.971,55.621
1314965284.12478,A14EBWBJ47AWoolpittoHaugleyBridge_sideview_000008_000652_Lane1.jpg,52.2164587,0.9411009,100.915,-1.87245,-39.73165,75.04743,601011.67,261657.166,55.678
1314965284.26978,A14EBWBJ47AWoolpittoHaugleyBridge_sideview_000008_000653_Lane1.jpg,52.2164526,0.941057,100.961,-1.81147,-39.93456,75.11629,601008.704,261656.366,55.724
1314965284.41483,A14EBWBJ47AWoolpittoHaugleyBridge_sideview_000008_000654_Lane1.jpg,52.2164466,0.9410131,101.018,-1.81386,-39.73023,75.21843,601005.731,261655.572,55.781
1314965284.55986,A14EBWBJ47AWoolpittoHaugleyBridge_sideview_000008_000655_Lane1.jpg,52.2164406,0.9409692,101.072,-1.7733,-39.67815,75.29064,601002.759,261654.783,55.834
1314965284.70490,A14EBWBJ47AWoolpittoHaugleyBridge_sideview_000008_000656_Lane1.jpg,52.2164346,0.9409253,101.116,-1.78042,-39.99245,75.4061,600999.789,261654.001,55.879
1314965284.84997,A14EBWBJ47AWoolpittoHaugleyBridge_sideview_000008_000657_Lane1.jpg,52.2164288,0.9408814,101.174,-1.93948,-39.88837,75.61343,600996.813,261653.227,55.936
1314965284.99497,A14EBWBJ47AWoolpittoHaugleyBridge_sideview_000008_000658_Lane1.jpg,52.2164229,0.9408374,101.231,-2.07431,-39.81897,75.77065,600993.837,261652.459,55.994
1314965285.14005,A14EBWBJ47AWoolpittoHaugleyBridge_sideview_000008_000659_Lane1.jpg,52.2164171,0.9407934,101.283,-2.01985,-39.79664,75.84651,600990.86,261651.692,56.046
1314965285.28510,A14EBWBJ47AWoolpittoHaugleyBridge_sideview_000008_000660_Lane1.jpg,52.2164114,0.9407495,101.334,-1.9665,-39.79969,75.91275,600987.884,261650.929,56.097
1314965285.43013,A14EBWBJ47AWoolpittoHaugleyBridge_sideview_000008_000661_Lane1.jpg,52.2164057,0.9407055,101.39,-1.87151,-39.78104,75.93171,600984.906,261650.171,56.153
1314965285.57511,A14EBWBJ47AWoolpittoHaugleyBridge_sideview_000008_000662_Lane1.jpg,52.2164,0.9406616,101.44,-1.94601,-40.07391,76.11445,600981.932,261649.422,56.202
1314965285.72023,A14EBWBJ47AWoolpittoHaugleyBridge_sideview_000008_000663_Lane1.jpg,52.2163944,0.9406176,101.5,-2.01372,-40.07861,76.24812,600978.954,261648.679,56.263
1314965285.86519,A14EBWBJ47AWoolpittoHaugleyBridge_sideview_000008_000664_Lane1.jpg,52.2163889,0.9405737,101.566,-1.90016,-39.84348,76.27085,600975.977,261647.939,56.328
1314965286.01040,A14EBWBJ47AWoolpittoHaugleyBridge_sideview_000008_000665_Lane1.jpg,52.2163833,0.9405297,101.621,-1.78466,-39.77995,76.31388,600972.998,261647.202,56.383
1314965286.15531,A14EBWBJ47AWoolpittoHaugleyBridge_sideview_000008_000666_Lane1.jpg,52.2163779,0.9404859,101.669,-1.81152,-40.00487,76.4585,600970.03,261646.476,56.431
1314965286.30027,A14EBWBJ47AWoolpittoHaugleyBridge_sideview_000008_000667_Lane1.jpg,52.2163725,0.940442,101.731,-1.8349,-39.77608,76.57084,600967.06,261645.756,56.493
1314965286.44529,A14EBWBJ47AWoolpittoHaugleyBridge_sideview_000008_000668_Lane1.jpg,52.2163672,0.9403983,101.788,-1.87069,-39.76213,76.70042,600964.095,261645.044,56.55
1314965286.59035,A14EBWBJ47AWoolpittoHaugleyBridge_sideview_000008_000669_Lane1.jpg,52.2163619,0.9403545,101.846,-1.82433,-39.69997,76.78265,600961.132,261644.337,56.608
1314965286.73537,A14EBWBJ47AWoolpittoHaugleyBridge_sideview_000008_000670_Lane1.jpg,52.2163567,0.9403109,101.896,-1.81229,-39.82501,76.89693,600958.174,261643.638,56.658
1314965286.88039,A14EBWBJ47AWoolpittoHaugleyBridge_sideview_000008_000671_Lane1.jpg,52.2163516,0.9402672,101.949,-1.74665,-39.88973,76.98355,600955.215,261642.944,56.711
1314965287.02564,A14EBWBJ47AWoolpittoHaugleyBridge_sideview_000008_000672_Lane1.jpg,52.2163465,0.9402234,102.005,-1.74742,-39.85073,77.08337,600952.249,261642.256,56.767
1314965287.17050,A14EBWBJ47AWoolpittoHaugleyBridge_sideview_000008_000673_Lane1.jpg,52.2163415,0.9401798,102.06,-1.71389,-39.88961,77.18568,600949.292,261641.574,56.822
1314965287.31549,A14EBWBJ47AWoolpittoHaugleyBridge_sideview_000008_000674_Lane1.jpg,52.2163365,0.9401361,102.114,-1.71124,-40.03654,77.29567,600946.33,261640.899,56.876
1314965287.46056,A14EBWBJ47AWoolpittoHaugleyBridge_sideview_000008_000675_Lane1.jpg,52.2163315,0.9400923,102.175,-1.69674,-39.96331,77.39843,600943.363,261640.228,56.936
1314965287.60563,A14EBWBJ47AWoolpittoHaugleyBridge_sideview_000008_000676_Lane1.jpg,52.2163266,0.9400485,102.232,-1.65217,-39.91251,77.46943,600940.393,261639.563,56.993
1314965287.75064,A14EBWBJ47AWoolpittoHaugleyBridge_sideview_000008_000677_Lane1.jpg,52.2163218,0.9400047,102.281,-1.71914,-39.90479,77.63846,600937.422,261638.903,57.042
1314965287.89574,A14EBWBJ47AWoolpittoHaugleyBridge_sideview_000008_000678_Lane1.jpg,52.216317,0.9399608,102.334,-1.68349,-39.66085,77.71692,600934.446,261638.249,57.095
1314965288.04084,A14EBWBJ47AWoolpittoHaugleyBridge_sideview_000008_000679_Lane1.jpg,52.2163123,0.9399169,102.382,-1.70765,-39.91081,77.85989,600931.47,261637.602,57.144
1314965288.18586,A14EBWBJ47AWoolpittoHaugleyBridge_sideview_000008_000680_Lane1.jpg,52.2163076,0.939873,102.441,-1.69799,-39.75465,77.96082,600928.489,261636.961,57.202
1314965288.33074,A14EBWBJ47AWoolpittoHaugleyBridge_sideview_000008_000681_Lane1.jpg,52.216303,0.9398292,102.485,-1.74256,-40.31099,78.14397,600925.516,261636.328,57.246
1314965288.47578,A14EBWBJ47AWoolpittoHaugleyBridge_sideview_000008_000682_Lane1.jpg,52.2162985,0.9397852,102.553,-1.9162,-40.22228,78.36651,600922.532,261635.703,57.314
1314965288.62083,A14EBWBJ47AWoolpittoHaugleyBridge_sideview_000008_000683_Lane1.jpg,52.216294,0.9397411,102.626,-1.90398,-39.99193,78.4517,600919.543,261635.082,57.388
1314965288.76583,A14EBWBJ47AWoolpittoHaugleyBridge_sideview_000008_000684_Lane1.jpg,52.2162895,0.9396971,102.687,-1.73838,-39.94744,78.47218,600916.556,261634.462,57.448
1314965288.91087,A14EBWBJ47AWoolpittoHaugleyBridge_sideview_000008_000685_Lane1.jpg,52.2162851,0.939653,102.741,-1.66219,-39.91791,78.56818,600913.567,261633.848,57.503
1314965289.05591,A14EBWBJ47AWoolpittoHaugleyBridge_sideview_000008_000686_Lane1.jpg,52.2162808,0.939609,102.799,-1.63083,-39.90681,78.64988,600910.577,261633.243,57.56
1314965289.20097,A14EBWBJ47AWoolpittoHaugleyBridge_sideview_000008_000687_Lane1.jpg,52.2162765,0.9395649,102.855,-1.67715,-39.87028,78.77509,600907.585,261632.645,57.617
1314965289.34596,A14EBWBJ47AWoolpittoHaugleyBridge_sideview_000008_000688_Lane1.jpg,52.2162723,0.9395208,102.907,-1.69002,-39.82975,78.88616,600904.595,261632.054,57.668
1314965289.49104,A14EBWBJ47AWoolpittoHaugleyBridge_sideview_000008_000689_Lane1.jpg,52.2162681,0.9394767,102.957,-1.77475,-39.94893,79.04776,600901.604,261631.468,57.718
1314965289.63607,A14EBWBJ47AWoolpittoHaugleyBridge_sideview_000008_000690_Lane1.jpg,52.216264,0.9394327,103.015,-1.8085,-40.00835,79.16358,600898.614,261630.889,57.777
1314965289.78105,A14EBWBJ47AWoolpittoHaugleyBridge_sideview_000008_000691_Lane1.jpg,52.2162599,0.9393886,103.08,-1.86942,-39.92388,79.31839,600895.623,261630.316,57.841
1314965289.92612,A14EBWBJ47AWoolpittoHaugleyBridge_sideview_000008_000692_Lane1.jpg,52.2162559,0.9393446,103.143,-1.7977,-39.94985,79.34935,600892.632,261629.745,57.904
1314965290.07119,A14EBWBJ47AWoolpittoHaugleyBridge_sideview_000008_000693_Lane1.jpg,52.2162519,0.9393005,103.203,-1.72715,-39.94489,79.39386,600889.64,261629.176,57.964
1314965290.21621,A14EBWBJ47AWoolpittoHaugleyBridge_sideview_000008_000694_Lane1.jpg,52.2162479,0.9392565,103.256,-1.86857,-40.1454,79.47004,600886.652,261628.618,58.017
1314965290.36126,A14EBWBJ47AWoolpittoHaugleyBridge_sideview_000008_000695_Lane1.jpg,52.216244,0.9392124,103.324,-1.89,-39.87447,79.44993,600883.659,261628.059,58.084
1314965290.50626,A14EBWBJ47AWoolpittoHaugleyBridge_sideview_000008_000696_Lane1.jpg,52.2162401,0.9391684,103.382,-1.84687,-39.83157,79.43382,600880.671,261627.497,58.142
1314965290.65128,A14EBWBJ47AWoolpittoHaugleyBridge_sideview_000008_000697_Lane1.jpg,52.2162361,0.9391245,103.432,-1.89597,-40.13295,79.47251,600877.688,261626.939,58.193
1314965290.79630,A14EBWBJ47AWoolpittoHaugleyBridge_sideview_000008_000698_Lane1.jpg,52.2162322,0.9390805,103.501,-1.91254,-39.92505,79.4888,600874.702,261626.38,58.262
1314965290.94133,A14EBWBJ47AWoolpittoHaugleyBridge_sideview_000008_000699_Lane1.jpg,52.2162283,0.9390365,103.565,-1.85867,-39.8236,79.48078,600871.717,261625.821,58.326
1314965291.08643,A14EBWBJ47AWoolpittoHaugleyBridge_sideview_000008_000700_Lane1.jpg,52.2162243,0.9389926,103.62,-1.78632,-39.73508,79.49354,600868.734,261625.262,58.381
1314965291.23166,A14EBWBJ47AWoolpittoHaugleyBridge_sideview_000008_000701_Lane1.jpg,52.2162204,0.9389487,103.674,-1.7314,-39.69817,79.47621,600865.751,261624.705,58.434
1314965291.37645,A14EBWBJ47AWoolpittoHaugleyBridge_sideview_000008_000702_Lane1.jpg,52.2162165,0.9389049,103.725,-1.51757,-40.02836,79.40989,600862.781,261624.148,58.485
1314965291.52152,A14EBWBJ47AWoolpittoHaugleyBridge_sideview_000008_000703_Lane1.jpg,52.2162126,0.9388611,103.785,-1.34858,-40.07021,79.34419,600859.805,261623.593,58.546
1314965291.66654,A14EBWBJ47AWoolpittoHaugleyBridge_sideview_000008_000704_Lane1.jpg,52.2162088,0.9388174,103.845,-1.5207,-40.37852,79.53427,600856.835,261623.049,58.605
1314965291.81157,A14EBWBJ47AWoolpittoHaugleyBridge_sideview_000008_000705_Lane1.jpg,52.2162051,0.9387736,103.92,-1.66703,-39.99506,79.67612,600853.862,261622.51,58.68
1314965291.95664,A14EBWBJ47AWoolpittoHaugleyBridge_sideview_000008_000706_Lane1.jpg,52.2162013,0.9387298,103.988,-1.6996,-39.71262,79.79096,600850.89,261621.971,58.748
1314965292.10169,A14EBWBJ47AWoolpittoHaugleyBridge_sideview_000008_000707_Lane1.jpg,52.2161976,0.9386862,104.039,-1.71007,-40.08357,79.93347,600847.927,261621.438,58.799
1314965292.25167,A14EBWBJ47AWoolpittoHaugleyBridge_sideview_000008_000708_Lane1.jpg,52.2161938,0.9386411,104.107,-1.71964,-40.00546,80.07333,600844.862,261620.894,58.867
1314965292.40172,A14EBWBJ47AWoolpittoHaugleyBridge_sideview_000008_000709_Lane1.jpg,52.2161901,0.9385959,104.177,-1.77651,-39.93047,80.20199,600841.795,261620.358,58.937
1314965292.55173,A14EBWBJ47AWoolpittoHaugleyBridge_sideview_000008_000710_Lane1.jpg,52.2161865,0.9385509,104.237,-1.76135,-40.0992,80.28762,600838.736,261619.827,58.997
1314965292.70179,A14EBWBJ47AWoolpittoHaugleyBridge_sideview_000008_000711_Lane1.jpg,52.2161829,0.9385058,104.302,-1.76986,-40.12149,80.42128,600835.676,261619.302,59.062
1314965292.85178,A14EBWBJ47AWoolpittoHaugleyBridge_sideview_000008_000712_Lane1.jpg,52.2161793,0.9384608,104.37,-1.82049,-40.01389,80.55631,600832.617,261618.785,59.131
1314965293.00197,A14EBWBJ47AWoolpittoHaugleyBridge_sideview_000008_000713_Lane1.jpg,52.2161759,0.9384158,104.436,-1.82566,-39.98742,80.67625,600829.558,261618.274,59.196
1314965293.15186,A14EBWBJ47AWoolpittoHaugleyBridge_sideview_000008_000714_Lane1.jpg,52.2161724,0.9383709,104.502,-1.87171,-39.94744,80.79563,600826.507,261617.769,59.262
1314965293.30190,A14EBWBJ47AWoolpittoHaugleyBridge_sideview_000008_000715_Lane1.jpg,52.2161691,0.938326,104.568,-1.79167,-40.02107,80.84461,600823.456,261617.269,59.328
1314965293.45192,A14EBWBJ47AWoolpittoHaugleyBridge_sideview_000008_000716_Lane1.jpg,52.2161657,0.9382811,104.636,-1.64066,-39.86887,80.85061,600820.404,261616.771,59.396
1314965293.60192,A14EBWBJ47AWoolpittoHaugleyBridge_sideview_000008_000717_Lane1.jpg,52.2161624,0.9382362,104.698,-1.52673,-39.58597,80.87342,600817.355,261616.28,59.458
1314965293.75203,A14EBWBJ47AWoolpittoHaugleyBridge_sideview_000008_000718_Lane1.jpg,52.2161592,0.9381915,104.745,-1.69447,-40.02935,81.06047,600814.311,261615.801,59.504
1314965293.90206,A14EBWBJ47AWoolpittoHaugleyBridge_sideview_000008_000719_Lane1.jpg,52.2161561,0.9381467,104.813,-1.94547,-40.05072,81.22485,600811.266,261615.33,59.573
1314965294.05212,A14EBWBJ47AWoolpittoHaugleyBridge_sideview_000008_000720_Lane1.jpg,52.216153,0.9381019,104.886,-2.01518,-39.90873,81.27043,600808.219,261614.858,59.645
1314965294.20214,A14EBWBJ47AWoolpittoHaugleyBridge_sideview_000008_000721_Lane1.jpg,52.2161498,0.9380571,104.943,-1.8403,-39.97248,81.17052,600805.177,261614.38,59.703
1314965294.35215,A14EBWBJ47AWoolpittoHaugleyBridge_sideview_000008_000722_Lane1.jpg,52.2161466,0.9380124,105.001,-1.68551,-39.98673,81.13711,600802.14,261613.9,59.76
1314965294.50220,A14EBWBJ47AWoolpittoHaugleyBridge_sideview_000008_000723_Lane1.jpg,52.2161435,0.9379678,105.058,-1.78339,-40.22867,81.19977,600799.107,261613.429,59.817
1314965294.65220,A14EBWBJ47AWoolpittoHaugleyBridge_sideview_000008_000724_Lane1.jpg,52.2161404,0.9379232,105.132,-1.89531,-40.03427,81.25632,600796.072,261612.963,59.891
1314965294.80228,A14EBWBJ47AWoolpittoHaugleyBridge_sideview_000008_000725_Lane1.jpg,52.2161373,0.9378786,105.198,-1.89411,-40.14389,81.28387,600793.041,261612.494,59.957
1314965294.95227,A14EBWBJ47AWoolpittoHaugleyBridge_sideview_000008_000726_Lane1.jpg,52.2161342,0.9378341,105.265,-1.80149,-40.03065,81.26024,600790.013,261612.024,60.024
1314965295.10234,A14EBWBJ47AWoolpittoHaugleyBridge_sideview_000008_000727_Lane1.jpg,52.2161311,0.9377895,105.33,-1.82831,-40.0315,81.2669,600786.985,261611.557,60.09
1314965295.25243,A14EBWBJ47AWoolpittoHaugleyBridge_sideview_000008_000728_Lane1.jpg,52.216128,0.937745,105.397,-1.82334,-40.03585,81.30939,600783.958,261611.09,60.157
1314965295.40240,A14EBWBJ47AWoolpittoHaugleyBridge_sideview_000008_000729_Lane1.jpg,52.2161249,0.9377005,105.463,-1.79553,-40.03221,81.30467,600780.934,261610.626,60.222
1314965295.55241,A14EBWBJ47AWoolpittoHaugleyBridge_sideview_000008_000730_Lane1.jpg,52.2161218,0.9376561,105.527,-1.80848,-40.05121,81.30027,600777.911,261610.162,60.286
1314965295.70248,A14EBWBJ47AWoolpittoHaugleyBridge_sideview_000008_000731_Lane1.jpg,52.2161188,0.9376116,105.59,-1.78861,-40.05332,81.27549,600774.888,261609.698,60.349
1314965295.85247,A14EBWBJ47AWoolpittoHaugleyBridge_sideview_000008_000732_Lane1.jpg,52.2161157,0.9375672,105.653,-1.74079,-40.13712,81.23025,600771.868,261609.234,60.412
1314965296.00269,A14EBWBJ47AWoolpittoHaugleyBridge_sideview_000008_000733_Lane1.jpg,52.2161126,0.9375227,105.722,-1.77484,-40.06749,81.24901,600768.842,261608.769,60.481
1314965296.15255,A14EBWBJ47AWoolpittoHaugleyBridge_sideview_000008_000734_Lane1.jpg,52.2161096,0.9374783,105.787,-1.74833,-40.07419,81.22599,600765.826,261608.304,60.546
1314965296.30267,A14EBWBJ47AWoolpittoHaugleyBridge_sideview_000008_000735_Lane1.jpg,52.2161065,0.9374339,105.853,-1.81982,-40.01083,81.25097,600762.804,261607.839,60.612
1314965296.45268,A14EBWBJ47AWoolpittoHaugleyBridge_sideview_000008_000736_Lane1.jpg,52.2161034,0.9373895,105.918,-1.85457,-40.02511,81.2592,600759.785,261607.374,60.677
1314965296.60271,A14EBWBJ47AWoolpittoHaugleyBridge_sideview_000008_000737_Lane1.jpg,52.2161003,0.937345,105.984,-1.96542,-40.13455,81.31273,600756.766,261606.909,60.743
1314965296.75272,A14EBWBJ47AWoolpittoHaugleyBridge_sideview_000008_000738_Lane1.jpg,52.2160972,0.9373007,106.052,-2.00768,-40.29312,81.33198,600753.749,261606.443,60.811
1314965296.90275,A14EBWBJ47AWoolpittoHaugleyBridge_sideview_000008_000739_Lane1.jpg,52.2160941,0.9372563,106.126,-1.96219,-40.27689,81.32609,600750.73,261605.975,60.885
1314965297.05276,A14EBWBJ47AWoolpittoHaugleyBridge_sideview_000008_000740_Lane1.jpg,52.216091,0.9372119,106.199,-1.93862,-40.19328,81.34369,600747.711,261605.506,60.958
1314965297.20285,A14EBWBJ47AWoolpittoHaugleyBridge_sideview_000008_000741_Lane1.jpg,52.2160879,0.9371674,106.269,-1.91065,-40.02624,81.37043,600744.689,261605.039,61.027
1314965297.35285,A14EBWBJ47AWoolpittoHaugleyBridge_sideview_000008_000742_Lane1.jpg,52.2160849,0.937123,106.331,-1.88244,-40.1085,81.40446,600741.67,261604.575,61.09
1314965297.50286,A14EBWBJ47AWoolpittoHaugleyBridge_sideview_000008_000743_Lane1.jpg,52.2160818,0.9370786,106.397,-1.90382,-40.28043,81.48511,600738.651,261604.114,61.155
1314965297.65290,A14EBWBJ47AWoolpittoHaugleyBridge_sideview_000008_000744_Lane1.jpg,52.2160788,0.9370341,106.473,-1.88018,-40.09758,81.4957,600735.628,261603.656,61.232
1314965297.80294,A14EBWBJ47AWoolpittoHaugleyBridge_sideview_000008_000745_Lane1.jpg,52.2160758,0.9369897,106.544,-1.80626,-40.12722,81.49899,600732.605,261603.198,61.302
1314965297.95297,A14EBWBJ47AWoolpittoHaugleyBridge_sideview_000008_000746_Lane1.jpg,52.2160728,0.9369452,106.611,-1.84523,-40.12155,81.55775,600729.582,261602.743,61.369
1314965298.10303,A14EBWBJ47AWoolpittoHaugleyBridge_sideview_000008_000747_Lane1.jpg,52.2160699,0.9369007,106.679,-1.91206,-40.00685,81.62584,600726.556,261602.293,61.437
1314965298.25306,A14EBWBJ47AWoolpittoHaugleyBridge_sideview_000008_000748_Lane1.jpg,52.2160669,0.9368563,106.742,-1.85527,-40.157,81.62997,600723.533,261601.843,61.501
1314965298.40311,A14EBWBJ47AWoolpittoHaugleyBridge_sideview_000008_000749_Lane1.jpg,52.216064,0.9368118,106.81,-1.78731,-40.11532,81.6652,600720.507,261601.394,61.568
1314965298.55314,A14EBWBJ47AWoolpittoHaugleyBridge_sideview_000008_000750_Lane1.jpg,52.2160611,0.9367673,106.875,-1.73584,-40.28869,81.68392,600717.484,261600.948,61.633
1314965298.70320,A14EBWBJ47AWoolpittoHaugleyBridge_sideview_000008_000751_Lane1.jpg,52.2160582,0.9367228,106.95,-1.70702,-40.16191,81.72442,600714.457,261600.505,61.708
1314965298.85320,A14EBWBJ47AWoolpittoHaugleyBridge_sideview_000008_000752_Lane1.jpg,52.2160554,0.9366783,107.022,-1.83181,-40.23122,81.85689,600711.432,261600.068,61.78
1314965299.00338,A14EBWBJ47AWoolpittoHaugleyBridge_sideview_000008_000753_Lane1.jpg,52.2160526,0.9366338,107.097,-1.87211,-40.19775,81.93328,600708.402,261599.632,61.855
1314965299.15326,A14EBWBJ47AWoolpittoHaugleyBridge_sideview_000008_000754_Lane1.jpg,52.2160498,0.9365893,107.167,-1.77913,-40.19351,81.90519,600705.377,261599.197,61.925
1314965299.30332,A14EBWBJ47AWoolpittoHaugleyBridge_sideview_000008_000755_Lane1.jpg,52.216047,0.9365448,107.238,-1.71104,-40.019,81.92052,600702.347,261598.762,61.996
1314965299.45333,A14EBWBJ47AWoolpittoHaugleyBridge_sideview_000008_000756_Lane1.jpg,52.2160442,0.9365003,107.303,-1.70797,-40.22953,81.94926,600699.32,261598.332,62.061
1314965299.60340,A14EBWBJ47AWoolpittoHaugleyBridge_sideview_000008_000757_Lane1.jpg,52.2160415,0.9364557,107.378,-1.75975,-40.08734,81.99144,600696.287,261597.904,62.135
1314965299.75338,A14EBWBJ47AWoolpittoHaugleyBridge_sideview_000008_000758_Lane1.jpg,52.2160388,0.9364112,107.444,-1.82248,-40.31628,82.0575,600693.259,261597.48,62.201
1314965299.90340,A14EBWBJ47AWoolpittoHaugleyBridge_sideview_000008_000759_Lane1.jpg,52.2160361,0.9363666,107.516,-1.75834,-40.32786,82.06636,600690.229,261597.054,62.274
1314965300.05347,A14EBWBJ47AWoolpittoHaugleyBridge_sideview_000008_000760_Lane1.jpg,52.2160334,0.936322,107.592,-1.68327,-40.19921,82.06404,600687.194,261596.629,62.35
1314965300.20353,A14EBWBJ47AWoolpittoHaugleyBridge_sideview_000008_000761_Lane1.jpg,52.2160307,0.9362775,107.662,-1.70384,-40.3173,82.09413,600684.163,261596.208,62.419
1314965300.35354,A14EBWBJ47AWoolpittoHaugleyBridge_sideview_000008_000762_Lane1.jpg,52.216028,0.9362329,107.738,-1.7374,-40.20198,82.11251,600681.129,261595.789,62.496
1314965300.50356,A14EBWBJ47AWoolpittoHaugleyBridge_sideview_000008_000763_Lane1.jpg,52.2160254,0.9361882,107.813,-1.74898,-40.12332,82.07913,600678.094,261595.37,62.57
1314965300.65362,A14EBWBJ47AWoolpittoHaugleyBridge_sideview_000008_000764_Lane1.jpg,52.2160227,0.9361436,107.883,-1.73268,-40.0656,82.00457,600675.058,261594.948,62.64
1314965300.80365,A14EBWBJ47AWoolpittoHaugleyBridge_sideview_000008_000765_Lane1.jpg,52.21602,0.936099,107.951,-1.6692,-40.0515,81.91926,600672.023,261594.522,62.709
1314965300.95367,A14EBWBJ47AWoolpittoHaugleyBridge_sideview_000008_000766_Lane1.jpg,52.2160172,0.9360544,108.016,-1.77614,-40.29738,81.94634,600668.99,261594.096,62.773
1314965301.10372,A14EBWBJ47AWoolpittoHaugleyBridge_sideview_000008_000767_Lane1.jpg,52.2160145,0.9360098,108.09,-1.88038,-40.25536,81.953,600665.953,261593.669,62.847
1314965301.25374,A14EBWBJ47AWoolpittoHaugleyBridge_sideview_000008_000768_Lane1.jpg,52.2160117,0.9359652,108.163,-1.87945,-40.3398,81.90366,600662.92,261593.238,62.92
1314965301.40379,A14EBWBJ47AWoolpittoHaugleyBridge_sideview_000008_000769_Lane1.jpg,52.2160089,0.9359206,108.24,-1.77173,-40.3281,81.8183,600659.885,261592.801,62.998
1314965301.55381,A14EBWBJ47AWoolpittoHaugleyBridge_sideview_000008_000770_Lane1.jpg,52.2160061,0.9358759,108.318,-1.67736,-40.28839,81.72379,600656.85,261592.362,63.076
1314965301.70385,A14EBWBJ47AWoolpittoHaugleyBridge_sideview_000008_000771_Lane1.jpg,52.2160032,0.9358313,108.393,-1.65179,-40.25562,81.68017,600653.816,261591.922,63.151
1314965301.85387,A14EBWBJ47AWoolpittoHaugleyBridge_sideview_000008_000772_Lane1.jpg,52.2160004,0.9357867,108.47,-1.56232,-40.09039,81.63169,600650.78,261591.479,63.227
1314965302.00421,A14EBWBJ47AWoolpittoHaugleyBridge_sideview_000008_000773_Lane1.jpg,52.2159975,0.935742,108.538,-1.60112,-40.40609,81.65691,600647.742,261591.038,63.295
1314965302.15394,A14EBWBJ47AWoolpittoHaugleyBridge_sideview_000008_000774_Lane1.jpg,52.2159947,0.9356974,108.617,-1.74711,-40.16534,81.74907,600644.709,261590.601,63.374
1314965302.30400,A14EBWBJ47AWoolpittoHaugleyBridge_sideview_000008_000775_Lane1.jpg,52.2159919,0.9356528,108.684,-1.80007,-40.21621,81.79163,600641.672,261590.163,63.44
1314965302.45403,A14EBWBJ47AWoolpittoHaugleyBridge_sideview_000008_000776_Lane1.jpg,52.215989,0.9356081,108.756,-1.75353,-40.10686,81.80029,600638.634,261589.723,63.513
1314965302.60410,A14EBWBJ47AWoolpittoHaugleyBridge_sideview_000008_000777_Lane1.jpg,52.2159862,0.9355634,108.826,-1.93414,-40.21828,81.92049,600635.596,261589.287,63.583
1314965302.75415,A14EBWBJ47AWoolpittoHaugleyBridge_sideview_000008_000778_Lane1.jpg,52.2159834,0.9355188,108.9,-2.04641,-40.35927,81.98521,600632.558,261588.853,63.656
1314965302.90416,A14EBWBJ47AWoolpittoHaugleyBridge_sideview_000008_000779_Lane1.jpg,52.2159806,0.9354741,108.984,-2.03482,-40.24203,81.99691,600629.517,261588.416,63.741
1314965303.05420,A14EBWBJ47AWoolpittoHaugleyBridge_sideview_000008_000780_Lane1.jpg,52.2159778,0.9354294,109.059,-1.95739,-40.19837,81.94103,600626.477,261587.978,63.815
1314965303.20420,A14EBWBJ47AWoolpittoHaugleyBridge_sideview_000008_000781_Lane1.jpg,52.215975,0.9353847,109.127,-1.99541,-40.41016,82.01179,600623.439,261587.541,63.883
1314965303.35426,A14EBWBJ47AWoolpittoHaugleyBridge_sideview_000008_000782_Lane1.jpg,52.2159722,0.93534,109.207,-2.14375,-40.03778,82.12757,600620.397,261587.109,63.963
1314965303.50426,A14EBWBJ47AWoolpittoHaugleyBridge_sideview_000008_000783_Lane1.jpg,52.2159694,0.9352953,109.287,-2.04044,-39.79184,81.93913,600617.355,261586.676,64.044
1314965303.65431,A14EBWBJ47AWoolpittoHaugleyBridge_sideview_000008_000784_Lane1.jpg,52.2159665,0.9352506,109.359,-1.56184,-40.05965,81.8129,600614.318,261586.23,64.115
1314965303.80434,A14EBWBJ47AWoolpittoHaugleyBridge_sideview_000008_000785_Lane1.jpg,52.2159638,0.9352059,109.43,-1.79548,-40.42188,81.96175,600611.277,261585.801,64.186
1314965303.95436,A14EBWBJ47AWoolpittoHaugleyBridge_sideview_000008_000786_Lane1.jpg,52.215961,0.9351611,109.51,-2.0035,-40.54985,82.11724,600608.23,261585.375,64.267
1314965304.10443,A14EBWBJ47AWoolpittoHaugleyBridge_sideview_000008_000787_Lane1.jpg,52.2159583,0.9351163,109.587,-1.95151,-40.50355,82.14588,600605.18,261584.944,64.344
1314965304.25446,A14EBWBJ47AWoolpittoHaugleyBridge_sideview_000008_000788_Lane1.jpg,52.2159555,0.9350714,109.666,-1.9006,-40.27833,82.1612,600602.128,261584.514,64.423
1314965304.40447,A14EBWBJ47AWoolpittoHaugleyBridge_sideview_000008_000789_Lane1.jpg,52.2159528,0.9350265,109.743,-1.80183,-40.40318,82.13425,600599.072,261584.085,64.499
1314965304.55448,A14EBWBJ47AWoolpittoHaugleyBridge_sideview_000008_000790_Lane1.jpg,52.2159501,0.9349815,109.825,-1.83844,-40.34494,82.21551,600596.01,261583.661,64.581
1314965304.70455,A14EBWBJ47AWoolpittoHaugleyBridge_sideview_000008_000791_Lane1.jpg,52.2159474,0.9349364,109.9,-1.83175,-40.47835,82.25156,600592.943,261583.238,64.656
1314965304.85464,A14EBWBJ47AWoolpittoHaugleyBridge_sideview_000008_000792_Lane1.jpg,52.2159448,0.9348913,109.977,-1.8904,-40.47449,82.31066,600589.871,261582.818,64.733
1314965305.00494,A14EBWBJ47AWoolpittoHaugleyBridge_sideview_000008_000793_Lane1.jpg,52.2159421,0.9348459,110.061,-1.78429,-40.39113,82.29459,600586.787,261582.396,64.817
1314965305.15469,A14EBWBJ47AWoolpittoHaugleyBridge_sideview_000008_000794_Lane1.jpg,52.2159394,0.9348007,110.14,-1.66443,-40.4903,82.28831,600583.709,261581.975,64.896
1314965305.30471,A14EBWBJ47AWoolpittoHaugleyBridge_sideview_000008_000795_Lane1.jpg,52.2159368,0.9347552,110.22,-1.66112,-40.25225,82.2949,600580.615,261581.555,64.976
1314965305.44973,A14EBWBJ47AWoolpittoHaugleyBridge_sideview_000008_000796_Lane1.jpg,52.2159343,0.9347112,110.284,-1.66416,-40.37888,82.32996,600577.621,261581.151,65.04
1314965305.59478,A14EBWBJ47AWoolpittoHaugleyBridge_sideview_000008_000797_Lane1.jpg,52.2159318,0.9346671,110.354,-1.85582,-40.61077,82.48134,600574.62,261580.752,65.109
1314965305.73978,A14EBWBJ47AWoolpittoHaugleyBridge_sideview_000008_000798_Lane1.jpg,52.2159293,0.9346228,110.438,-1.92493,-40.46207,82.52923,600571.608,261580.354,65.194
1314965305.88481,A14EBWBJ47AWoolpittoHaugleyBridge_sideview_000008_000799_Lane1.jpg,52.2159268,0.9345784,110.519,-1.86849,-40.34529,82.52327,600568.586,261579.951,65.275
1314965306.03012,A14EBWBJ47AWoolpittoHaugleyBridge_sideview_000008_000800_Lane1.jpg,52.2159242,0.9345338,110.591,-1.77526,-40.34771,82.49614,600565.551,261579.546,65.346
1314965306.17488,A14EBWBJ47AWoolpittoHaugleyBridge_sideview_000008_000801_Lane1.jpg,52.2159217,0.9344892,110.661,-1.77469,-40.28293,82.53403,600562.516,261579.144,65.417
1314965306.31993,A14EBWBJ47AWoolpittoHaugleyBridge_sideview_000008_000802_Lane1.jpg,52.2159192,0.9344445,110.724,-1.77056,-40.70288,82.57865,600559.474,261578.743,65.479
1314965306.46493,A14EBWBJ47AWoolpittoHaugleyBridge_sideview_000008_000803_Lane1.jpg,52.2159168,0.9343996,110.81,-1.92878,-40.37247,82.67011,600556.418,261578.346,65.566
1314965306.60998,A14EBWBJ47AWoolpittoHaugleyBridge_sideview_000008_000804_Lane1.jpg,52.2159143,0.9343547,110.892,-2.02821,-40.46507,82.73903,600553.358,261577.949,65.647
1314965306.75503,A14EBWBJ47AWoolpittoHaugleyBridge_sideview_000008_000805_Lane1.jpg,52.2159118,0.9343096,110.975,-1.96027,-40.49756,82.73478,600550.292,261577.548,65.731
1314965306.90008,A14EBWBJ47AWoolpittoHaugleyBridge_sideview_000008_000806_Lane1.jpg,52.2159093,0.9342644,111.06,-1.81875,-40.34362,82.67354,600547.217,261577.145,65.816
1314965307.04512,A14EBWBJ47AWoolpittoHaugleyBridge_sideview_000008_000807_Lane1.jpg,52.2159069,0.9342192,111.138,-1.77462,-40.41267,82.68789,600544.14,261576.745,65.893
1314965307.19024,A14EBWBJ47AWoolpittoHaugleyBridge_sideview_000008_000808_Lane1.jpg,52.2159044,0.9341739,111.214,-1.88516,-40.47362,82.78045,600541.059,261576.35,65.969
1314965307.33518,A14EBWBJ47AWoolpittoHaugleyBridge_sideview_000008_000809_Lane1.jpg,52.215902,0.9341286,111.298,-1.87508,-40.35863,82.80205,600537.974,261575.955,66.053
1314965307.48018,A14EBWBJ47AWoolpittoHaugleyBridge_sideview_000008_000810_Lane1.jpg,52.2158996,0.9340832,111.377,-1.89019,-40.39163,82.83676,600534.886,261575.56,66.132
1314965307.62526,A14EBWBJ47AWoolpittoHaugleyBridge_sideview_000008_000811_Lane1.jpg,52.2158972,0.9340378,111.454,-1.92336,-40.42265,82.89644,600531.793,261575.166,66.209
1314965307.77026,A14EBWBJ47AWoolpittoHaugleyBridge_sideview_000008_000812_Lane1.jpg,52.2158948,0.9339923,111.535,-1.85042,-40.38802,82.87126,600528.698,261574.772,66.29
1314965307.91526,A14EBWBJ47AWoolpittoHaugleyBridge_sideview_000008_000813_Lane1.jpg,52.2158924,0.9339468,111.614,-1.89673,-40.39918,82.90064,600525.601,261574.381,66.369
1314965308.05531,A14EBWBJ47AWoolpittoHaugleyBridge_sideview_000008_000814_Lane1.jpg,52.2158901,0.9339028,111.689,-2.01624,-40.37387,82.93284,600522.604,261574.007,66.444
1314965308.19536,A14EBWBJ47AWoolpittoHaugleyBridge_sideview_000008_000815_Lane1.jpg,52.2158878,0.9338587,111.764,-2.02913,-40.43426,82.87925,600519.601,261573.628,66.519
1314965308.33538,A14EBWBJ47AWoolpittoHaugleyBridge_sideview_000008_000816_Lane1.jpg,52.2158855,0.9338144,111.836,-2.03889,-40.49667,82.81847,600516.591,261573.245,66.591
1314965308.47540,A14EBWBJ47AWoolpittoHaugleyBridge_sideview_000008_000817_Lane1.jpg,52.2158831,0.93377,111.91,-1.99547,-40.60642,82.73815,600513.568,261572.855,66.665
1314965308.61555,A14EBWBJ47AWoolpittoHaugleyBridge_sideview_000008_000818_Lane1.jpg,52.2158806,0.9337253,111.991,-1.9833,-40.61449,82.68522,600510.526,261572.459,66.745
1314965308.75546,A14EBWBJ47AWoolpittoHaugleyBridge_sideview_000008_000819_Lane1.jpg,52.2158781,0.9336805,112.074,-1.96272,-40.50499,82.61003,600507.474,261572.06,66.829
1314965308.89560,A14EBWBJ47AWoolpittoHaugleyBridge_sideview_000008_000820_Lane1.jpg,52.2158756,0.9336354,112.15,-1.93441,-40.5762,82.54186,600504.406,261571.655,66.905
1314965309.03576,A14EBWBJ47AWoolpittoHaugleyBridge_sideview_000008_000821_Lane1.jpg,52.2158731,0.9335902,112.225,-1.9566,-40.58961,82.55616,600501.329,261571.247,66.98
1314965309.17559,A14EBWBJ47AWoolpittoHaugleyBridge_sideview_000008_000822_Lane1.jpg,52.2158705,0.9335449,112.309,-1.86373,-40.41963,82.4864,600498.249,261570.836,67.063
1314965309.31564,A14EBWBJ47AWoolpittoHaugleyBridge_sideview_000008_000823_Lane1.jpg,52.215868,0.9334994,112.394,-2.00595,-40.20106,82.65686,600495.154,261570.427,67.148
1314965309.45066,A14EBWBJ47AWoolpittoHaugleyBridge_sideview_000008_000824_Lane1.jpg,52.2158655,0.9334556,112.454,-2.07696,-40.94569,82.71741,600492.173,261570.036,67.209
1314965309.59075,A14EBWBJ47AWoolpittoHaugleyBridge_sideview_000008_000825_Lane1.jpg,52.215863,0.93341,112.548,-2.02828,-40.57252,82.72505,600489.069,261569.626,67.303
1314965309.73072,A14EBWBJ47AWoolpittoHaugleyBridge_sideview_000008_000826_Lane1.jpg,52.2158604,0.9333643,112.643,-1.91579,-40.24473,82.70417,600485.962,261569.217,67.397
1314965309.86576,A14EBWBJ47AWoolpittoHaugleyBridge_sideview_000008_000827_Lane1.jpg,52.215858,0.9333203,112.72,-1.87454,-40.25948,82.72615,600482.962,261568.825,67.474
1314965310.00184,A14EBWBJ47AWoolpittoHaugleyBridge_sideview_000008_000828_Lane1.jpg,52.2158556,0.9332758,112.79,-1.80254,-40.46162,82.73069,600479.937,261568.433,67.544
1314965310.13580,A14EBWBJ47AWoolpittoHaugleyBridge_sideview_000008_000829_Lane1.jpg,52.2158532,0.933232,112.864,-1.80674,-40.37938,82.77881,600476.953,261568.049,67.618
1314965310.27082,A14EBWBJ47AWoolpittoHaugleyBridge_sideview_000008_000830_Lane1.jpg,52.2158509,0.9331877,112.936,-1.89492,-40.24283,82.86035,600473.942,261567.666,67.69
1314965310.40588,A14EBWBJ47AWoolpittoHaugleyBridge_sideview_000008_000831_Lane1.jpg,52.2158486,0.9331435,113.003,-2.03479,-40.70886,83.01055,600470.93,261567.287,67.757
1314965310.54087,A14EBWBJ47AWoolpittoHaugleyBridge_sideview_000008_000832_Lane1.jpg,52.2158463,0.933099,113.091,-2.04788,-40.54712,83.01143,600467.906,261566.908,67.845
1314965310.67593,A14EBWBJ47AWoolpittoHaugleyBridge_sideview_000008_000833_Lane1.jpg,52.2158439,0.9330544,113.177,-2.09498,-40.26856,83.08112,600464.87,261566.525,67.931
1314965310.81096,A14EBWBJ47AWoolpittoHaugleyBridge_sideview_000008_000834_Lane1.jpg,52.2158416,0.9330098,113.245,-2.25275,-40.52874,83.21886,600461.832,261566.147,67.999
1314965310.94599,A14EBWBJ47AWoolpittoHaugleyBridge_sideview_000008_000835_Lane1.jpg,52.2158393,0.932965,113.323,-2.13218,-40.34733,83.15486,600458.782,261565.767,68.076
1314965311.08105,A14EBWBJ47AWoolpittoHaugleyBridge_sideview_000008_000836_Lane1.jpg,52.215837,0.9329201,113.393,-1.94184,-40.43601,83.04165,600455.726,261565.384,68.147
1314965311.21610,A14EBWBJ47AWoolpittoHaugleyBridge_sideview_000008_000837_Lane1.jpg,52.2158347,0.9328751,113.466,-1.86997,-40.19402,82.91572,600452.661,261565.001,68.22
1314965311.35111,A14EBWBJ47AWoolpittoHaugleyBridge_sideview_000008_000838_Lane1.jpg,52.2158324,0.93283,113.533,-1.94828,-40.30962,82.92874,600449.592,261564.617,68.287
1314965311.48613,A14EBWBJ47AWoolpittoHaugleyBridge_sideview_000008_000839_Lane1.jpg,52.21583,0.9327847,113.605,-2.02422,-40.49166,82.89839,600446.512,261564.23,68.359
1314965311.62119,A14EBWBJ47AWoolpittoHaugleyBridge_sideview_000008_000840_Lane1.jpg,52.2158276,0.9327393,113.685,-1.9566,-40.38008,82.81626,600443.42,261563.836,68.439
1314965311.75620,A14EBWBJ47AWoolpittoHaugleyBridge_sideview_000008_000841_Lane1.jpg,52.2158251,0.9326938,113.756,-1.97601,-40.48977,82.79355,600440.326,261563.439,68.509
1314965311.89127,A14EBWBJ47AWoolpittoHaugleyBridge_sideview_000008_000842_Lane1.jpg,52.2158227,0.9326483,113.831,-2.03423,-40.36274,82.78053,600437.223,261563.041,68.585
1314965312.02641,A14EBWBJ47AWoolpittoHaugleyBridge_sideview_000008_000843_Lane1.jpg,52.2158202,0.9326025,113.911,-1.93714,-40.13092,82.73014,600434.112,261562.636,68.664
1314965312.15627,A14EBWBJ47AWoolpittoHaugleyBridge_sideview_000008_000844_Lane1.jpg,52.2158178,0.9325586,113.977,-1.89419,-40.40824,82.74742,600431.123,261562.247,68.731
1314965312.28630,A14EBWBJ47AWoolpittoHaugleyBridge_sideview_000008_000845_Lane1.jpg,52.2158154,0.9325146,114.051,-1.81388,-40.41666,82.7359,600428.124,261561.857,68.804
1314965312.41638,A14EBWBJ47AWoolpittoHaugleyBridge_sideview_000008_000846_Lane1.jpg,52.215813,0.9324705,114.125,-1.85378,-40.48276,82.79368,600425.123,261561.471,68.878
1314965312.54636,A14EBWBJ47AWoolpittoHaugleyBridge_sideview_000008_000847_Lane1.jpg,52.2158107,0.9324263,114.204,-1.90793,-40.22967,82.82983,600422.118,261561.087,68.957
1314965312.67638,A14EBWBJ47AWoolpittoHaugleyBridge_sideview_000008_000848_Lane1.jpg,52.2158083,0.9323821,114.277,-1.90606,-40.08238,82.85558,600419.111,261560.703,69.031
1314965312.80642,A14EBWBJ47AWoolpittoHaugleyBridge_sideview_000008_000849_Lane1.jpg,52.2158059,0.9323379,114.342,-1.86344,-40.38293,82.87047,600416.102,261560.318,69.095
1314965312.93643,A14EBWBJ47AWoolpittoHaugleyBridge_sideview_000008_000850_Lane1.jpg,52.2158036,0.9322937,114.415,-1.78835,-40.13081,82.87121,600413.09,261559.935,69.168
1314965313.06647,A14EBWBJ47AWoolpittoHaugleyBridge_sideview_000008_000851_Lane1.jpg,52.2158013,0.9322494,114.478,-1.77565,-40.35347,82.89805,600410.08,261559.555,69.231
1314965313.19664,A14EBWBJ47AWoolpittoHaugleyBridge_sideview_000008_000852_Lane1.jpg,52.215799,0.9322051,114.552,-1.77281,-40.3654,82.96522,600407.064,261559.177,69.305
1314965313.32656,A14EBWBJ47AWoolpittoHaugleyBridge_sideview_000008_000853_Lane1.jpg,52.2157967,0.9321608,114.633,-1.78173,-40.10761,82.97157,600404.046,261558.802,69.386
1314965313.45656,A14EBWBJ47AWoolpittoHaugleyBridge_sideview_000008_000854_Lane1.jpg,52.2157944,0.9321164,114.697,-1.71073,-39.89577,82.99039,600401.027,261558.426,69.449
1314965313.58663,A14EBWBJ47AWoolpittoHaugleyBridge_sideview_000008_000855_Lane1.jpg,52.2157922,0.9320721,114.743,-1.8235,-40.31821,83.11934,600398.012,261558.056,69.496
1314965313.71667,A14EBWBJ47AWoolpittoHaugleyBridge_sideview_000008_000856_Lane1.jpg,52.21579,0.9320278,114.814,-2.00546,-40.49266,83.25108,600394.991,261557.691,69.567
1314965313.84666,A14EBWBJ47AWoolpittoHaugleyBridge_sideview_000008_000857_Lane1.jpg,52.2157878,0.9319833,114.903,-1.99991,-40.00111,83.27407,600391.966,261557.325,69.655
1314965313.97669,A14EBWBJ47AWoolpittoHaugleyBridge_sideview_000008_000858_Lane1.jpg,52.2157856,0.931939,114.971,-1.99421,-39.94151,83.32255,600388.945,261556.959,69.723
1314965314.10677,A14EBWBJ47AWoolpittoHaugleyBridge_sideview_000008_000859_Lane1.jpg,52.2157835,0.9318946,115.026,-1.86309,-40.12106,83.31487,600385.928,261556.594,69.779
1314965314.23678,A14EBWBJ47AWoolpittoHaugleyBridge_sideview_000008_000860_Lane1.jpg,52.2157813,0.9318504,115.086,-1.8678,-40.13589,83.37265,600382.914,261556.234,69.839
1314965314.36682,A14EBWBJ47AWoolpittoHaugleyBridge_sideview_000008_000861_Lane1.jpg,52.2157792,0.9318061,115.158,-1.97209,-39.94775,83.43462,600379.896,261555.879,69.91
1314965314.49691,A14EBWBJ47AWoolpittoHaugleyBridge_sideview_000008_000862_Lane1.jpg,52.2157772,0.9317618,115.22,-2.17575,-40.09559,83.60326,600376.882,261555.529,69.973
1314965314.62688,A14EBWBJ47AWoolpittoHaugleyBridge_sideview_000008_000863_Lane1.jpg,52.2157751,0.9317176,115.28,-2.22142,-40.2701,83.66208,600373.876,261555.179,70.033
1314965314.75688,A14EBWBJ47AWoolpittoHaugleyBridge_sideview_000008_000864_Lane1.jpg,52.2157731,0.9316734,115.354,-2.08538,-40.05153,83.57286,600370.864,261554.826,70.106
1314965314.88689,A14EBWBJ47AWoolpittoHaugleyBridge_sideview_000008_000865_Lane1.jpg,52.215771,0.9316292,115.419,-2.05135,-39.99967,83.58302,600367.854,261554.474,70.171
1314965315.01713,A14EBWBJ47AWoolpittoHaugleyBridge_sideview_000008_000866_Lane1.jpg,52.2157689,0.9315849,115.48,-2.03647,-40.09207,83.57452,600364.839,261554.124,70.232
1314965315.14695,A14EBWBJ47AWoolpittoHaugleyBridge_sideview_000008_000867_Lane1.jpg,52.2157669,0.9315408,115.539,-2.01096,-40.35603,83.56334,600361.834,261553.776,70.291
1314965315.27697,A14EBWBJ47AWoolpittoHaugleyBridge_sideview_000008_000868_Lane1.jpg,52.2157649,0.9314965,115.612,-2.0199,-39.80661,83.57214,600358.816,261553.428,70.364
1314965315.40705,A14EBWBJ47AWoolpittoHaugleyBridge_sideview_000008_000869_Lane1.jpg,52.2157628,0.9314523,115.664,-2.04561,-40.08374,83.63012,600355.805,261553.079,70.416
1314965315.53706,A14EBWBJ47AWoolpittoHaugleyBridge_sideview_000008_000870_Lane1.jpg,52.2157608,0.931408,115.723,-1.9607,-40.19891,83.56478,600352.793,261552.731,70.475
1314965315.66710,A14EBWBJ47AWoolpittoHaugleyBridge_sideview_000008_000871_Lane1.jpg,52.2157588,0.9313637,115.794,-1.83676,-39.87779,83.5391,600349.775,261552.381,70.546
1314965315.79717,A14EBWBJ47AWoolpittoHaugleyBridge_sideview_000008_000872_Lane1.jpg,52.2157568,0.9313194,115.849,-1.87039,-40.04351,83.59214,600346.761,261552.036,70.601
1314965315.92716,A14EBWBJ47AWoolpittoHaugleyBridge_sideview_000008_000873_Lane1.jpg,52.2157548,0.9312752,115.908,-2.13387,-40.11037,83.75043,600343.747,261551.698,70.66
1314965316.05719,A14EBWBJ47AWoolpittoHaugleyBridge_sideview_000008_000874_Lane1.jpg,52.2157528,0.9312309,115.974,-2.06355,-39.9072,83.72359,600340.729,261551.355,70.725
1314965316.18721,A14EBWBJ47AWoolpittoHaugleyBridge_sideview_000008_000875_Lane1.jpg,52.2157508,0.9311866,116.025,-1.9267,-40.02814,83.67805,600337.715,261551.01,70.776
1314965316.31724,A14EBWBJ47AWoolpittoHaugleyBridge_sideview_000008_000876_Lane1.jpg,52.2157489,0.9311423,116.081,-1.82251,-40.01524,83.63919,600334.7,261550.667,70.833
1314965316.44727,A14EBWBJ47AWoolpittoHaugleyBridge_sideview_000008_000877_Lane1.jpg,52.2157469,0.931098,116.142,-1.86313,-40.06109,83.71132,600331.682,261550.328,70.894
1314965316.57731,A14EBWBJ47AWoolpittoHaugleyBridge_sideview_000008_000878_Lane1.jpg,52.215745,0.9310537,116.204,-1.85544,-39.8867,83.72235,600328.662,261549.992,70.956
1314965316.70732,A14EBWBJ47AWoolpittoHaugleyBridge_sideview_000008_000879_Lane1.jpg,52.2157431,0.9310094,116.257,-1.92211,-40.02686,83.82627,600325.646,261549.657,71.009
1314965316.83736,A14EBWBJ47AWoolpittoHaugleyBridge_sideview_000008_000880_Lane1.jpg,52.2157412,0.9309651,116.316,-2.06645,-40.08464,83.93242,600322.628,261549.328,71.067
1314965316.96743,A14EBWBJ47AWoolpittoHaugleyBridge_sideview_000008_000881_Lane1.jpg,52.2157393,0.9309207,116.385,-2.04623,-39.61305,83.95199,600319.603,261548.995,71.137
1314965317.09752,A14EBWBJ47AWoolpittoHaugleyBridge_sideview_000008_000882_Lane1.jpg,52.2157375,0.9308764,116.427,-1.99842,-40.19021,84.01098,600316.586,261548.664,71.178
1314965317.22746,A14EBWBJ47AWoolpittoHaugleyBridge_sideview_000008_000883_Lane1.jpg,52.2157356,0.930832,116.484,-2.14242,-40.16695,84.13133,600313.565,261548.34,71.235
1314965317.35748,A14EBWBJ47AWoolpittoHaugleyBridge_sideview_000008_000884_Lane1.jpg,52.2157338,0.9307876,116.55,-2.08114,-40.0507,84.12186,600310.537,261548.015,71.301
1314965317.48748,A14EBWBJ47AWoolpittoHaugleyBridge_sideview_000008_000885_Lane1.jpg,52.215732,0.930743,116.617,-1.80452,-39.79001,84.00444,600307.502,261547.686,71.368
1314965317.61759,A14EBWBJ47AWoolpittoHaugleyBridge_sideview_000008_000886_Lane1.jpg,52.2157302,0.9306984,116.663,-1.75908,-40.02501,84.02263,600304.464,261547.361,71.415
1314965317.74756,A14EBWBJ47AWoolpittoHaugleyBridge_sideview_000008_000887_Lane1.jpg,52.2157284,0.9306538,116.705,-1.91797,-40.32796,84.1584,600301.426,261547.044,71.456
1314965317.87764,A14EBWBJ47AWoolpittoHaugleyBridge_sideview_000008_000888_Lane1.jpg,52.2157267,0.930609,116.768,-1.99104,-40.08268,84.22684,600298.374,261546.728,71.519
1314965318.00785,A14EBWBJ47AWoolpittoHaugleyBridge_sideview_000008_000889_Lane1.jpg,52.215725,0.9305641,116.837,-2.02043,-39.81251,84.25786,600295.312,261546.412,71.588
1314965318.13767,A14EBWBJ47AWoolpittoHaugleyBridge_sideview_000008_000890_Lane1.jpg,52.2157232,0.9305192,116.889,-1.98154,-40.01262,84.28356,600292.257,261546.096,71.64
1314965318.26769,A14EBWBJ47AWoolpittoHaugleyBridge_sideview_000008_000891_Lane1.jpg,52.2157215,0.9304742,116.942,-1.8445,-39.92799,84.25294,600289.192,261545.778,71.693
1314965318.39777,A14EBWBJ47AWoolpittoHaugleyBridge_sideview_000008_000892_Lane1.jpg,52.2157198,0.9304292,116.992,-1.87811,-39.99923,84.29495,600286.121,261545.464,71.743
1314965318.52774,A14EBWBJ47AWoolpittoHaugleyBridge_sideview_000008_000893_Lane1.jpg,52.2157181,0.9303841,117.047,-1.90368,-40.01992,84.34891,600283.05,261545.153,71.798
1314965318.65778,A14EBWBJ47AWoolpittoHaugleyBridge_sideview_000008_000894_Lane1.jpg,52.2157164,0.9303389,117.106,-1.89197,-39.79903,84.32349,600279.974,261544.842,71.857
1314965318.78782,A14EBWBJ47AWoolpittoHaugleyBridge_sideview_000008_000895_Lane1.jpg,52.2157148,0.9302938,117.155,-1.9689,-39.99734,84.37914,600276.899,261544.533,71.906
1314965318.91784,A14EBWBJ47AWoolpittoHaugleyBridge_sideview_000008_000896_Lane1.jpg,52.2157131,0.9302486,117.214,-2.03182,-39.88048,84.4321,600273.82,261544.224,71.964
1314965319.04788,A14EBWBJ47AWoolpittoHaugleyBridge_sideview_000008_000897_Lane1.jpg,52.2157115,0.9302034,117.27,-2.08513,-39.8753,84.47217,600270.74,261543.915,72.02
